City_ID,City,Country,Max Temp,Weather Description,Lat,Lng,Hotel Name
1,Saldanha,ZA,46.45,broken clouds,-33.0117,17.9442,Saldanha Bay Hotel
2,Punta Arenas,CL,41.11,broken clouds,-53.15,-70.9167,Hotel Cabo de Hornos
3,Narsaq,GL,52.02,overcast clouds,60.9167,-46.05,Igdlo Guesthouse
4,Oga,IT,66.88,broken clouds,46.4631,10.347,Alpen
5,Longjiang,CN,66.29,clear sky,47.3303,123.1836,Longjiang Hotel
6,East London,ZA,64.31,overcast clouds,-33.0153,27.9116,Garden Court East London
7,Sao Joao Da Barra,BR,75.29,scattered clouds,-21.6403,-41.0511,Pousada Porto Prime
8,Tabuk,PH,73.4,overcast clouds,17.4189,121.4443,"M Hotel Tabuk, INC."
9,Chicama,PE,61.34,scattered clouds,-7.8447,-79.1469,Hospedaje Punta Cana PERU
11,Bambous Virieux,MU,70.05,few clouds,-20.3428,57.7575,La Hacienda Hotel
12,Hobart,AU,44.28,clear sky,-42.8794,147.3294,Hotel Grand Chancellor Hobart
13,Mataura,NZ,57.47,overcast clouds,-46.1927,168.8643,Ellie's Villa
14,Bururi,BI,59.04,scattered clouds,-3.85,29.6333,Bahía Paraíso Luxury Suites
15,Tuatapere,NZ,53.56,light rain,-46.1333,167.6833,Tui Base Camp Motels
16,Puerto Ayora,EC,76.96,broken clouds,-0.7393,-90.3518,Finch Bay Galapagos Hotel
17,Saint-Leu,RE,65.32,light rain,-21.15,55.2833,Iloha Seaview Hotel
18,Mahon,ES,79.36,clear sky,39.8885,4.2658,ARTIEM Capri
19,Atuona,PF,77.49,few clouds,-9.8,-139.0333,Hôtel Hiva Oa Hanakee Lodge
20,Cape Town,ZA,54.91,few clouds,-33.9258,18.4232,The Table Bay hotel
21,Ushuaia,AR,40.66,broken clouds,-54.8,-68.3,Hotel Los Yámanas de Ushuaia
22,Busselton,AU,51.76,overcast clouds,-33.65,115.3333,Esplanade Hotel
23,Bilibino,RU,48.24,overcast clouds,68.0546,166.4372,Profilaktoriy Baes
24,Kodiak,US,62.11,overcast clouds,57.79,-152.4072,Best Western Kodiak Inn
27,Tuktoyaktuk,CA,68.0,broken clouds,69.4541,-133.0374,Smitty's Bed and Breakfast
28,Mehamn,NO,62.55,clear sky,71.0357,27.8492,Mehamn Arctic Hotel AS
29,Bengkulu,ID,73.72,overcast clouds,-3.8004,102.2655,Mercure Bengkulu
30,Bredasdorp,ZA,49.06,overcast clouds,-34.5322,20.0403,Victoria Hotel - Bredasdorp
31,Tasiilaq,GL,41.16,overcast clouds,65.6145,-37.6368,Hotel Angmagssalik
32,Avarua,CK,77.05,broken clouds,-21.2078,-159.775,The Islander Hotel
38,Panzhihua,CN,69.37,overcast clouds,26.5851,101.7128,Jinhai New Century Grand Hotel
39,Zhigansk,RU,48.18,overcast clouds,66.7697,123.3711,Gostinichnyy Kompleks Aylgy
40,Bluff,NZ,57.79,overcast clouds,-46.6,168.3333,Land's End Boutique Hotel
41,Mar Del Plata,AR,48.09,few clouds,-38.0023,-57.5575,NH Gran Hotel Provincial
42,Muros,ES,71.69,broken clouds,42.7762,-9.0603,Miraflores Alojamiento Turístico
43,Novyy Urengoy,RU,61.7,overcast clouds,66.0833,76.6333,Amaks Polyarnaya Zvezda
44,Tautira,PF,76.24,light rain,-17.7333,-149.15,InterContinental Resort Tahiti
47,Anadyr,RU,57.7,light rain,64.75,177.4833,Anadyr
48,Rikitea,PF,70.93,overcast clouds,-23.1203,-134.9692,Pension Bianca & Benoit
49,Padang,ID,73.45,light rain,-0.9492,100.3543,Mercure Padang
50,Biltine,TD,77.97,broken clouds,14.5333,20.9167,Hôtel Trois Étoiles de Biltine
51,Barrow,US,56.32,overcast clouds,71.2906,-156.7887,Top of the World Hotel
53,Sulangan,PH,79.83,overcast clouds,11.1373,123.7228,Paradise reef resort
55,Torbay,CA,77.76,broken clouds,47.6666,-52.7314,See The Sea
56,Tramagal,PT,69.22,overcast clouds,39.45,-8.25,Luna Hotel Turismo
57,Akdepe,TM,78.89,clear sky,42.0551,59.3788,"Hotel ""ARAL"""
58,Arraial Do Cabo,BR,73.26,clear sky,-22.9661,-42.0278,Orlanova Boutique Hotel
59,Broome,US,74.19,light rain,42.2506,-75.833,Holiday Inn Express & Suites Gibson
60,Harper,LR,74.57,overcast clouds,4.375,-7.7169,Grands' Guesthouse
61,Tagusao,PH,79.84,overcast clouds,9.1924,117.8141,"Shaman's Breath- Beach, Bed & Breakfast"
62,College,US,75.07,few clouds,64.8569,-147.8028,Best Western Plus Pioneer Park Inn
63,Rabo De Peixe,PT,72.91,few clouds,37.8,-25.5833,Pedras do Mar Resort & SPA
64,Pueblo Nuevo,MX,71.22,overcast clouds,23.3833,-105.3833,Molinillos Mountain Resort
66,Northam,GB,60.62,clear sky,51.0333,-4.2167,The Royal Hotel
67,Coquimbo,CL,58.73,clear sky,-29.9533,-71.3436,Hostel Del Puerto
69,Vao,NC,72.01,overcast clouds,-22.6667,167.4833,OURE TERA beach resort
70,Qaqortoq,GL,48.02,overcast clouds,60.7167,-46.0333,Siniffik Inn
71,Yellowknife,CA,64.92,broken clouds,62.456,-114.3525,The Explorer Hotel
72,Imbituba,BR,73.85,moderate rain,-28.24,-48.6703,Praia Hotel Imbituba
73,Luena,AO,61.34,clear sky,-11.7833,19.9167,Hotel Kandamba
74,Airai,TL,55.13,few clouds,-8.9266,125.4092,Hotel Timor
75,Nome,US,52.16,overcast clouds,64.5011,-165.4064,Aurora Inn & Suites
77,Constitucion,CL,54.23,overcast clouds,-35.3333,-72.4167,Hotel Nogal
79,Hammerfest,NO,55.85,broken clouds,70.6634,23.6821,Scandic Hammerfest
80,Merauke,ID,75.94,broken clouds,-8.4667,140.3333,Swiss-Belhotel Merauke
81,Lasa,IT,74.28,broken clouds,46.6166,10.7002,Gasthof Zur Sonne
82,Rawson,AR,47.41,broken clouds,-43.3002,-65.1023,Complejo Bahia Ballenas
83,Yar-Sale,RU,56.35,clear sky,66.8333,70.8333,Yalemd
84,Dudinka,RU,60.62,overcast clouds,69.4058,86.1778,Yenisei lights
87,Vaini,TO,78.96,broken clouds,-21.2,-175.2,Dayspring Lodge
88,Saint-Philippe,RE,65.21,scattered clouds,-21.3585,55.7679,Hôtel Les Embruns Du Baril
89,Lidkoping,SE,64.42,overcast clouds,58.5052,13.1577,Best Western Edward Hotel
90,Vila,PT,67.69,scattered clouds,42.0304,-8.1588,Hotel Castrum Villae
95,Kurdzhinovo,RU,62.4,clear sky,43.9884,40.9552,Camping Bolshaya Laba
97,Kununurra,AU,64.38,broken clouds,-15.7667,128.7333,The Kimberley Grande Resort
98,Richards Bay,ZA,66.15,few clouds,-28.783,32.0377,BON Hotel Waterfront Richards Bay
100,Pemba,MZ,74.1,few clouds,-12.974,40.5178,Avani Pemba Beach Hotel
101,Nikolskoye,RU,66.09,few clouds,59.7035,30.7861,Tourist House - Sablino
103,Roebourne,AU,61.74,clear sky,-20.7833,117.1333,Latitude20 Roebourne Village
104,Lagoa,PT,75.7,light rain,39.05,-27.9833,Graciosa Resort - Biosphere Island Hotel
107,Chuy,UY,52.23,overcast clouds,-33.6971,-53.4616,Hotel Internacional
108,San Carlos De Bariloche,AR,38.95,broken clouds,-41.1456,-71.3082,Bahía Paraíso Luxury Suites
109,Hualmay,PE,65.71,scattered clouds,-11.0964,-77.6139,Hotel Terrazas Del Mar - Huacho
110,Katsuura,JP,74.46,overcast clouds,35.1333,140.3,Katsuura Hotel Mikazuki
111,Sitka,US,62.49,overcast clouds,57.0531,-135.33,Sitka Hotel
115,Qasigiannguit,GL,44.85,light rain,68.8193,-51.1922,Hotel Diskobay
116,Dubrovytsya,UA,68.52,broken clouds,51.5744,26.565,Druzhba
117,Kapit,MY,73.18,moderate rain,2.0167,112.9333,Loft Pals Urbanstay
118,Nizhnekamsk,RU,68.79,clear sky,55.6366,51.8245,Oliviya
119,Cidreira,BR,68.38,scattered clouds,-30.1811,-50.2056,Hotel Castelo
120,Oberwart,AT,73.62,clear sky,47.2897,16.206,AVITA Resort - Hotel/Therme/Spa
123,Majengo,TZ,67.28,scattered clouds,-5.15,38.9833,Dolphin Hotel and Restaurant
125,Asfi,MA,70.38,clear sky,32.2994,-9.2372,Valley Boutique Hotel
126,Pangnirtung,CA,50.0,broken clouds,66.1451,-65.7125,Auyuittuq Lodge (Inns North)
127,Port Alfred,ZA,59.63,scattered clouds,-33.5906,26.891,Royal St Andrews Hotel
129,Nanortalik,GL,46.51,overcast clouds,60.1432,-45.2371,Hotel Kap Farvel
131,Kamenka,RU,70.02,overcast clouds,51.3223,42.7678,Hotel Rossiya
132,Kokkola,FI,63.93,clear sky,63.8385,23.1307,Hotel Kokkola
133,Tuensang,IN,70.16,overcast clouds,26.2833,94.8333,NST HOTEL
134,Aykhal,RU,43.21,light rain,66.0,111.5,Гостиница Айхал
135,Butembo,CD,58.14,scattered clouds,0.15,29.2833,Hotel Ivatsiro
136,Gigmoto,PH,77.0,overcast clouds,13.7796,124.39,Cj's Travellers Inn
137,Saint-Pierre,RE,65.28,clear sky,-21.3393,55.4781,Alize Plage
139,Baruun-Urt,MN,60.46,scattered clouds,46.6806,113.2792,Ургах наран
140,Qaanaaq,GL,44.98,clear sky,77.484,-69.3632,Qaanaaq Hotel
141,Quilmana,PE,68.54,overcast clouds,-12.95,-76.3833,"Hostal ""El Silencio"""
142,Marawi,PH,69.31,overcast clouds,7.9986,124.2928,"Marawi Resort Hotel, Inc. (Ayala Resort)"
146,Shipunovo,RU,53.53,clear sky,52.1582,82.2173,"Hotel ""Alieika"""
148,Ngozi,BI,62.51,overcast clouds,-2.9075,29.8306,Ganza Hotel & Restaurant
149,Coihaique,CL,40.95,few clouds,-45.5752,-72.0662,Entre Cumbres Apart Hotel
150,Somerset East,ZA,53.33,overcast clouds,-32.7217,25.588,Somerset East Royal Hotel
152,Mahebourg,MU,70.09,few clouds,-20.4081,57.7,Holiday Inn Mauritius Mon Tresor
156,Ulaanbaatar,MN,55.53,scattered clouds,47.9077,106.8832,Shangri-La Ulaanbaatar
157,Iqaluit,CA,43.7,broken clouds,63.7506,-68.5145,Aqsarniit Hotel & Conference Centre
158,Volot,RU,61.5,clear sky,57.9278,30.7025,Hotel Polist
159,Pandan,PH,76.5,overcast clouds,14.0453,124.1694,Bonifacio Lodge
160,Morondava,MG,70.61,clear sky,-20.2833,44.2833,Palissandre Cote Ouest resort & SPA
161,Turukhansk,RU,49.91,scattered clouds,65.8167,87.9833,"ООО ""Туруханская пушнина"""
162,Dingle,PH,75.65,light rain,10.9995,122.6711,Vaccinated Staff - OYO 236 Hotel Edmundo
165,Tiksi,RU,46.51,overcast clouds,71.6872,128.8694,Gostinitsa
166,New Norfolk,AU,43.92,broken clouds,-42.7826,147.0587,Junction Motel
167,Omboue,GA,72.1,scattered clouds,-1.5746,9.2618,Hôtel Georges Faustin Aurat
168,Hermanus,ZA,47.8,overcast clouds,-34.4187,19.2345,Harbour House Hotel
170,Porto Belo,BR,68.25,overcast clouds,-27.1578,-48.5531,Costa Verde Beach Hotel
171,Nemuro,JP,58.1,overcast clouds,43.3236,145.575,Hotel Nemuro Kaiyoutei
172,Ambilobe,MG,65.08,clear sky,-13.2,49.05,Hotel National
173,Kamaishi,JP,67.68,overcast clouds,39.2667,141.8833,Kamaishi Bay City Hotel
174,Fare,PF,77.02,moderate rain,-16.7,-151.0167,Maitai Lapita Village Huahine
177,Faanui,PF,77.4,light rain,-16.4833,-151.75,InterContinental Bora Bora Resort Thalasso Spa
179,Samarai,PG,79.43,scattered clouds,-10.6167,150.6667,Nuli Sapi
180,Bandarbeyla,SO,77.27,scattered clouds,9.4942,50.8122,JABIR HOTEL
181,Hobyo,SO,76.3,broken clouds,5.3505,48.5268,Osmani Hotel
183,Miguel Hidalgo,MX,77.43,broken clouds,19.4225,-99.2028,Hotel Galería Plaza Reforma
184,Thompson,CA,66.36,broken clouds,55.7435,-97.8558,Best Western Thompson Hotel & Suites
186,Victoria,HK,78.85,heavy intensity rain,22.2855,114.1577,The T Hotel
187,Megion,RU,59.02,broken clouds,61.0296,76.1136,Nadezhda
188,Sioux Lookout,CA,69.87,broken clouds,50.1001,-91.917,Sioux Lookout Inn & Suites
189,Khatanga,RU,53.24,overcast clouds,71.9667,102.5,"Gostinitsa ""Khatanga"""
191,Stolin,BY,67.57,broken clouds,51.8912,26.846,Gostinitsa Goryn'
192,Pisco,PE,64.45,clear sky,-13.7,-76.2167,PiscoMar Peru
193,Whitehorse,CA,70.11,light intensity shower rain,60.7161,-135.0538,Best Western Gold Rush Inn
196,Angoche,MZ,71.73,clear sky,-16.2325,39.9086,Hotel Chando Angoche
197,Lugo,ES,65.77,overcast clouds,43.0,-7.5,Mercure Lugo Centro
199,Priyutovo,RU,61.81,few clouds,53.9,53.9333,"Gostinichnyye Uslugi, Banya"
200,Juneau,US,62.83,broken clouds,58.3019,-134.4197,"Baranof Downtown, BW Signature Collection"
203,Azare,NG,77.29,overcast clouds,11.6765,10.1948,Criss Hotel
206,Aklavik,CA,75.2,haze,68.2191,-135.0107,Aklavik Inn
207,Talakan,RU,70.74,moderate rain,50.3167,130.3667,Gostinitsa Talakan
208,Camabatela,AO,64.53,scattered clouds,-8.1881,15.375,Hotel Pif Paf
210,Pallasovka,RU,78.42,broken clouds,50.05,46.8833,Hotel Yubileinaya
212,Aksu,CN,77.5,few clouds,41.1231,80.2644,Jianshe Hotel
213,Shizunai,JP,63.43,overcast clouds,42.3339,142.3669,Shizunai Eclipse Hotel
214,Cap Malheureux,MU,67.46,few clouds,-19.9842,57.6142,Hibiscus Boutique Hotel
216,Yulara,AU,48.07,clear sky,-25.2406,130.9889,The Lost Camel Hotel - Ayers Rock Resort
219,Aberystwyth,GB,48.7,scattered clouds,52.4155,-4.0829,Plas Nanteos Mansion
221,Domoni,KM,73.54,clear sky,-12.2569,44.5319,Al Djadid
223,Port Hardy,CA,62.78,broken clouds,50.6996,-127.4199,Quarterdeck Inn Resort & Marina
224,Lebu,CL,50.7,overcast clouds,-37.6167,-73.65,Hotel Plaza Lebu
226,Koronowo,PL,77.31,broken clouds,53.3137,17.937,4 Kąty Apartamenty Koronowo
228,Cuamba,MZ,71.26,overcast clouds,-14.8031,36.5372,Daania Residence
230,Kavaratti,IN,78.55,light rain,10.5669,72.642,Madheena Hotel
231,Gemena,CD,69.82,broken clouds,3.25,19.7667,Hôtel Goshen
232,Victor Harbor,AU,50.68,broken clouds,-35.5667,138.6167,The Anchorage Hotel
233,Leh,IN,64.89,scattered clouds,34.1667,77.5833,Hotel Samaya
234,Cabedelo,BR,75.87,few clouds,-6.9811,-34.8339,Hotel Almagre
235,Tondano,ID,68.41,overcast clouds,1.3038,124.9112,Yama Resort Tondano
236,Salym,RU,58.23,few clouds,60.0625,71.4789,Gostinitsa Salym
237,Asilah,MA,78.76,clear sky,35.465,-6.0348,Asilah 32
238,Cairns,AU,67.95,broken clouds,-16.9167,145.7667,Palm Royale Cairns
239,Port-Gentil,GA,74.03,overcast clouds,-0.7193,8.7815,Hôtel L'Hirondelle
240,Ayan,RU,55.92,light rain,56.45,138.1667,Gostinitsa
242,Terrace,CA,66.11,broken clouds,54.5163,-128.6035,"Holiday Inn Express & Suites Terrace, an IHG Hotel"
243,Souillac,MU,70.18,few clouds,-20.5167,57.5167,Shanti Maurice Resort & Spa
244,Castro,BR,65.3,broken clouds,-24.7911,-50.0119,Hotel Buganville Express
246,Esmeraldas,BR,77.86,scattered clouds,-19.7625,-44.3139,Parque do Avestruz Eco Resort
247,Olinda,BR,76.73,scattered clouds,-8.0089,-34.8553,Inn of the Four Corners
248,Carnarvon,AU,58.84,scattered clouds,-24.8667,113.6333,Hospitality Carnarvon
249,Shelburne,CA,78.24,overcast clouds,44.0787,-80.2041,Shelburne motel
250,Pevek,RU,36.86,light rain,69.7008,170.3133,Munitsipal'naya Gostinitsa
251,Leningradskiy,RU,38.07,overcast clouds,69.3833,178.4167,Gostinitsa
252,Port Elizabeth,ZA,52.32,clear sky,-33.918,25.5701,Herms Restaurant and Boutique Hotel
253,Fortuna,US,74.93,clear sky,40.5982,-124.1573,The Redwood Riverwalk
254,Lata,PT,66.81,scattered clouds,40.1629,-8.3327,Magnolias Cottage
255,Port Loko,SL,72.91,light rain,8.7667,-12.7833,REGENT PALACE HOTEL
256,Malindi,KE,74.41,clear sky,-3.2175,40.1191,Sandies Tropical Village
259,Hofn,IS,50.27,scattered clouds,64.2539,-15.2082,House On The Hill - Guesthouse
261,Bourges,FR,78.39,broken clouds,47.25,2.4167,Bell Fourche City
262,Jiuquan,CN,77.09,clear sky,39.7432,98.5174,Jiuquan Hotel
263,Tokur,RU,59.94,broken clouds,53.1333,132.9,"Mini-Gostinitsa ""Ekimchan"""
264,Mikhaylovka,RU,74.7,light rain,50.06,43.2379,Zhemchuzhina
267,Karpathos,GR,75.16,light rain,35.507,27.2132,Apolis beachscape hotel
268,Carhuamayo,PE,42.91,overcast clouds,-10.9167,-76.0333,HOTEL TACNA'S.
269,Bubaque,GW,79.75,light rain,11.2833,-15.8333,Ponta Anchaca
270,Ancud,CL,43.23,overcast clouds,-41.8697,-73.8203,Panamericana Hotel Ancud
272,Tual,ID,79.83,overcast clouds,-5.6667,132.75,Grand Vilia Hotel
273,Fairbanks,US,75.09,few clouds,64.8378,-147.7164,Holiday Inn Express Northern Lights Inn
275,Klaksvik,FO,47.32,overcast clouds,62.2266,-6.589,Hotel Klaksvík
276,Khandyga,RU,68.68,broken clouds,62.6667,135.6,Prezidentskaya Gostinitsa
281,Kutum,SD,78.4,broken clouds,14.2,24.6667,مسجد دليبة العتيق
282,Lukovetskiy,RU,59.97,overcast clouds,64.2956,41.9211,Gostinitsa
284,Geraldton,AU,48.61,overcast clouds,-28.7667,114.6,Northampton Motor Hotel
285,Berlevag,NO,58.8,scattered clouds,70.8578,29.0864,Berlevåg camping & Appartement AS
286,Kaduna,NG,68.77,broken clouds,10.5222,7.4383,Asaa Pyramid Hotel
287,Longyearbyen,SJ,46.47,overcast clouds,78.2186,15.6401,"Radisson Blu Polar Hotel, Spitsbergen"
288,Talara,PE,77.76,broken clouds,-4.5772,-81.2719,Hotel Gran Palma Talara
289,Muisne,EC,75.9,overcast clouds,0.6,-80.0333,Hotel Galapagos
290,Naron,ES,68.85,overcast clouds,43.5167,-8.1528,Hotel Valcarce Ferrol
292,Loudi,CN,78.98,overcast clouds,27.7344,111.9944,418 Huatian Hotel
296,Goderich,CA,75.52,overcast clouds,43.7501,-81.7165,Bedford Hotel
297,Caravelas,BR,69.17,few clouds,-17.7125,-39.2481,Pousada Liberdade
298,Dali,CN,63.3,overcast clouds,25.7,100.1833,LUX* Tea Horse Road Dali
299,Kruisfontein,ZA,52.23,broken clouds,-34.0033,24.7314,40b Overnight Accommodation
300,Yamoussoukro,CI,75.09,few clouds,6.8206,-5.2767,FLORENCE HÔTEL FIRENZE YAMOUSSOUKRO
302,Ginda,IN,65.95,overcast clouds,30.6945,78.4932,Shivlinga Resort
304,Ilulissat,GL,44.62,overcast clouds,69.2167,-51.1,Hotel Arctic
305,Ribeira Grande,PT,75.6,scattered clouds,38.5167,-28.7,Casa da Japoneira
306,Alice Springs,AU,51.35,few clouds,-23.7,133.8833,Stay at Alice Springs Hotel (formerly Aurora Alice Springs)
307,Mayumba,GA,68.41,scattered clouds,-3.432,10.6554,LIKWALE LODGE
308,Waipawa,NZ,51.55,scattered clouds,-41.4122,175.5153,The Royal Hotel
310,Akcaabat,TR,78.67,broken clouds,41.0212,39.5715,DoubleTree by Hilton Trabzon
311,Ambon,ID,78.24,scattered clouds,-3.6954,128.1814,Hotel Santika Premiere Ambon
312,Nurota,UZ,75.31,broken clouds,40.5614,65.6886,Guest House Ruslan Nurata & Tours
315,Murgab,TM,76.87,clear sky,37.4966,61.9714,Mary myhmanhanasy
317,Telfs,AT,74.68,broken clouds,47.3,11.0667,Interalpen-Hotel Tyrol
318,Maragogi,BR,74.62,clear sky,-9.0122,-35.2225,Pousada Sol & Mar - Maragogi
320,Mosquera,CO,64.49,scattered clouds,4.7059,-74.2302,Hostal VIYAJE
324,Kuvandyk,RU,63.27,broken clouds,51.4781,57.3552,Hotel Kamenka
325,Santona,ES,70.7,overcast clouds,43.4439,-3.4576,Hotel Cosmopol
327,Nelson Bay,AU,61.0,overcast clouds,-32.7167,152.15,Hotel Nelson
328,Poso,ID,75.49,broken clouds,-1.3959,120.7524,Ancyra Hotel By Continent - Poso
329,Lubango,AO,61.03,clear sky,-14.9172,13.4925,Hotel Lubango
330,Wanaka,NZ,45.32,overcast clouds,-44.7,169.15,Wanaka Hotel
331,Lahat,ID,70.43,light rain,-3.8,103.5333,Hotel Grand Zuri Lahat by ZHM
332,Kajaani,FI,62.65,clear sky,64.2273,27.7285,Scandic Kajanus
334,Kismayo,SO,75.43,clear sky,-0.3582,42.5454,Agan-Hotel
336,Krasnoarmeysk,RU,67.3,few clouds,51.0239,45.6969,"Hotel ""Your home-Balzer"""
337,Creel,MX,72.77,broken clouds,27.75,-107.6333,The Lodge at Creel Hotel & SPA
338,Petropavlovsk-Kamchatskiy,RU,57.79,clear sky,53.0452,158.6483,Hotel Arsenev
339,Matara,LK,77.92,overcast clouds,5.9485,80.5353,Amaloh Boutique Resort
341,Paita,PE,66.07,broken clouds,-5.0892,-81.1144,Hotel Marina Del Bay
344,Esperance,AU,48.04,light rain,-33.8667,121.9,Comfort Inn Bay of Isles
345,Ust-Ilimsk,RU,48.18,overcast clouds,58.0006,102.6619,"Gostinitsa ""Ust'-Ilim"""
347,Kaga,JP,77.04,overcast clouds,36.2997,136.3145,APA HOTEL KAGADAISHOJI-EKIMAE
348,Marsa Matruh,EG,78.37,clear sky,31.3525,27.2453,Air Force hotel
349,Mount Gambier,AU,45.36,overcast clouds,-37.8333,140.7667,The Commodore
350,Codrington,AU,47.53,overcast clouds,-38.2667,141.9667,Codrington Gardens Bed And Breakfast
351,Paraiso,CR,65.41,overcast clouds,9.8383,-83.8656,Navarro Mountain Dream
352,Salinopolis,BR,79.11,broken clouds,-0.6136,-47.3561,Hotel Privê do Atalaia
353,Port-Cartier,CA,64.74,overcast clouds,50.0334,-66.8654,Le Q'Artier
355,Nouadhibou,MR,75.18,overcast clouds,20.931,-17.0347,Hotel Delphin-Nouadhibou
356,Lodja,CD,74.66,clear sky,-3.4833,23.4333,HÔTEL VERAL LODGE
358,Chara,RU,51.1,heavy intensity rain,56.9064,118.2631,Kodar
362,Port Macquarie,AU,59.9,overcast clouds,-31.4333,152.9167,ibis Styles Port Macquarie
363,Jiayuguan,CN,76.64,few clouds,39.8167,98.3,Jiayuguan Hotel
364,Derzhavinsk,KZ,64.08,clear sky,51.1,66.3167,Gostinitsa Galaktika
365,Alyangula,AU,74.64,scattered clouds,-13.8483,136.4192,Groote Eylandt Lodge
366,Poya,NC,75.96,few clouds,-21.35,165.15,Sheraton New Caledonia Deva Spa & Golf Resort
370,Atambua,ID,67.5,few clouds,-9.1061,124.8925,Hotel King Star
371,Pietarsaari,FI,61.9,overcast clouds,63.65,22.6833,JK Hotels & Resorts Ab
372,Sao Filipe,CV,77.05,overcast clouds,14.8961,-24.4956,Hotel Santos Pina
373,Teguise,ES,70.02,few clouds,29.0605,-13.564,HOTEL BOUTIQUE PALACIO ICO
375,Namie,JP,71.71,overcast clouds,37.4833,141.0,Hotel Futabanomori
376,Mizdah,LY,75.31,light rain,31.4451,12.9801,فندق مزدة الكبير
377,Isangel,VU,77.11,few clouds,-19.55,169.2667,Tanna Ikamir Guest House
378,Ciechanow,PL,66.06,few clouds,52.8814,20.62,Lofft Hotel
379,Haines Junction,CA,71.55,overcast clouds,60.7522,-137.5108,Glacier View Inn
380,Hervey Bay,AU,66.02,broken clouds,-25.2986,152.8535,Oaks Hervey Bay Resort and Spa
382,Fujin,CN,73.06,moderate rain,47.26,132.0322,Fujin shengda hotel
383,Karratha,AU,61.12,clear sky,-20.7377,116.8463,Karratha International Hotel
384,Norman Wells,CA,73.44,scattered clouds,65.282,-126.8329,Heritage Hotel
387,Chebarkul,RU,55.31,broken clouds,54.9749,60.3633,"Family Resort ""Utes"""
388,Salalah,OM,78.89,overcast clouds,17.0151,54.0924,Salalah Gardens Hotel
392,Quthing,LS,50.76,broken clouds,-30.4,27.7003,Mountainside Hotel
394,Maceio,BR,78.24,broken clouds,-9.6658,-35.7353,Maceió Atlantic Suites
395,Praia,CV,79.34,broken clouds,14.9215,-23.5087,Hotel Oasis Atlantico Praiamar
396,Talnakh,RU,60.21,overcast clouds,69.4865,88.3972,Talnakh Hotel
397,Yushu,CN,72.72,moderate rain,44.8,126.5333,Heyue Hotel
398,Port Augusta,AU,47.62,clear sky,-32.5,137.7667,Majestic Oasis Apartments
399,Luwuk,ID,74.35,scattered clouds,-0.9516,122.7875,Swiss-Belinn Hotel Luwuk
400,Waingapu,ID,69.51,clear sky,-9.6567,120.2641,Kambaniru Beach Hotel and Resort
402,Amapa,BR,77.7,broken clouds,1.0,-52.0,Hotel Santa Bárbara
403,Kloulklubed,PW,73.9,overcast clouds,7.0419,134.2556,The Adventures Inn-Peleliu
404,Banganan,PH,72.28,overcast clouds,16.3144,121.0544,"Holiday Inn Baguio City Centre, an IHG Hotel"
407,Sept-Iles,CA,65.05,overcast clouds,50.2001,-66.3821,Château Arnaud
409,Nioro,GM,77.07,overcast clouds,13.35,-15.75,Bintang Bolong Lodge
410,Peddapalli,IN,76.8,overcast clouds,18.6167,79.3667,Hotel Swetha
411,Shitanjing,CN,75.52,clear sky,39.2342,106.3439,Yingbin Hotel
413,Chapais,CA,64.18,scattered clouds,49.7834,-74.8492,Hôtel Opémiska
414,Mezen,RU,60.91,overcast clouds,65.8522,44.24,Gostevoy Dom Everest
416,Poum,NC,74.73,clear sky,-20.2333,164.0167,Karem Bay
417,Dunedin,NZ,56.16,overcast clouds,-45.8742,170.5036,The Victoria Hotel Dunedin
418,Port Lincoln,AU,51.98,broken clouds,-34.7333,135.8667,Port Lincoln Hotel
419,Vandra,EE,71.26,few clouds,58.6481,25.0361,Pargi Hostel
420,Abalak,RU,58.21,overcast clouds,58.1286,68.5944,Туристический комплекс Абалак
421,Mizan Teferi,ET,62.19,overcast clouds,6.9833,35.5833,Hotel Salayish - ሳላይሽ ሆቴል
425,Taltal,CL,60.66,broken clouds,-25.4,-70.4833,Hotel Gali
426,Salamanca,ES,74.98,scattered clouds,40.8333,-6.0,Palacio Carrascalino
428,Viedma,AR,44.47,scattered clouds,-40.8135,-62.9967,Hotel Austral Viedma
429,Mandalgovi,MN,63.72,overcast clouds,45.7625,106.2708,Mandal Hotel
430,Ponta Do Sol,PT,74.03,clear sky,32.6667,-17.1,Dazkarizeh73 Boutique Residence & SPA (5831/AL)
432,Soe,ID,58.6,scattered clouds,-9.8607,124.284,Dena Hotel
434,Tukan,RU,52.25,few clouds,53.8409,57.4552,"Turbaza, Khostel, Gornyy Priyut ""Aygir"""
435,Namibe,AO,62.01,clear sky,-15.1961,12.1522,Hotel Chik Chik Namibe
437,Itarema,BR,77.67,clear sky,-2.9248,-39.9167,White Wind Resort
438,Ahipara,NZ,57.43,clear sky,-35.1667,173.1667,The Huts
440,Kaa-Khem,RU,51.91,clear sky,51.6833,94.7333,AZIMUT Hotel Kyzyl
441,Harsin,IR,77.81,clear sky,34.2721,47.5861,Laleh Bisotun Hotel
442,Andenes,NO,57.92,broken clouds,69.3143,16.1194,Andrikken Hotel
443,Kenai,US,67.03,broken clouds,60.5544,-151.2583,Aspen Extended Stay Suites
444,Camaqua,BR,56.59,broken clouds,-30.8511,-51.8122,Bartz Hotel
445,Kozienice,PL,68.76,few clouds,51.5829,21.5478,Zajazd Rycerski sala weselna noclegi
446,Rudnichnyy,RU,61.88,broken clouds,59.617,52.4703,Gostinitsa
447,Eirunepe,BR,78.1,overcast clouds,-6.6603,-69.8736,Aquariu's Hotel
449,Majene,ID,75.18,few clouds,-3.5403,118.9707,Puri Lembang Majene
452,Haimen,CN,78.69,overcast clouds,23.1935,116.6142,Huangcheng Hotel
453,General Roca,AR,51.62,broken clouds,-39.0333,-67.5833,Hotel El Recreo
455,Batouri,CM,69.91,overcast clouds,4.4333,14.3667,Hotel Hollywood
458,Barsovo,RU,60.93,clear sky,61.1667,73.1667,Hotel Yunost
459,Udachnyy,RU,44.46,overcast clouds,66.4167,112.4,Udachny Hostel
462,Nianzishan,CN,66.54,clear sky,47.5167,122.8833,Haitong Fashion Hotel
464,Budogoshch,RU,60.21,scattered clouds,59.2816,32.4707,"Zagorodnyy Otel' ""Volkhov Most"""
465,Mareeba,AU,66.43,broken clouds,-17.0,145.4333,Mareeba Motor Inn
467,Lufilufi,WS,74.98,light rain,-13.8745,-171.5986,Leuaina Beach Resort and Spa
469,Churapcha,RU,66.87,scattered clouds,62.0025,132.4325,"""Tusku"""
470,Macamic,CA,68.43,broken clouds,48.7502,-78.9996,"Maison Tardif Enr. - Chambre à Macamic, QC"
471,Suntar,RU,52.57,overcast clouds,62.1444,117.6319,Gostevoy Dom
472,Villa Alemana,CL,62.33,clear sky,-33.0422,-71.3733,Tierras Del Sol
473,Armidale,AU,53.53,light rain,-30.5167,151.65,Rydges Armidale
475,Akureyri,IS,48.13,few clouds,65.6835,-18.0878,Icelandair Hotel Akureyri
476,Le Port,RE,66.16,light rain,-20.9373,55.2919,Lodge Roche Tamarin & Spa Village Nature
477,Vila Franca Do Campo,PT,73.81,light rain,37.7167,-25.4333,Pestana Bahia Praia
478,Lagos,NG,73.69,overcast clouds,6.5833,3.75,Vintage Suites
479,Aleksandrov Gay,RU,77.43,scattered clouds,50.147,48.5704,Gostinitsa
482,Kaeo,NZ,54.32,clear sky,-35.1,173.7833,Pacific Harbour Lodge
483,Alofi,NU,78.69,scattered clouds,-19.0595,-169.9187,Taloa Heights
484,Dilla,ET,63.72,overcast clouds,6.41,38.31,Delight International Hotel
487,Panguna,PG,75.88,broken clouds,-6.3164,155.4848,DJ Garden Lodge
488,Axim,GH,72.9,broken clouds,4.8699,-2.2405,Ankobra Beach Resort
489,Mount Isa,AU,67.77,broken clouds,-20.7333,139.5,ibis Styles Mt Isa Verona
490,Bundaberg,AU,63.21,broken clouds,-24.85,152.35,Boulevard Lodge
491,Galle,LK,78.62,overcast clouds,6.0367,80.217,Galle Fort Hotel
492,Iseyin,NG,70.03,broken clouds,7.9667,3.6,Momak Hotels And Suites
493,Fort Nelson,CA,63.99,broken clouds,58.8053,-122.7002,Lakeview Inns & Suites - Fort Nelson
494,Tynda,RU,62.92,moderate rain,55.1667,124.7167,Gostinitsa Safari
500,Xuanhua,CN,74.64,clear sky,40.6103,115.0447,7 Days Premium·zhangjiakou Xuanhua Zhonglou
502,Buta,CD,70.02,overcast clouds,2.7858,24.73,HOTEL BISO NA BISO
504,Jiancheng,CN,76.41,clear sky,30.391,104.5491,7 Days Premium·jianyang City Centre
506,Zhangye,CN,76.32,clear sky,38.9342,100.4517,Zhangye Lvzhou Holiday Inn
507,Dzerzhinsk,RU,66.02,few clouds,56.2389,43.4631,Chernorechye
509,El Puerto De Santa Maria,ES,76.24,clear sky,36.5939,-6.233,Duques de Medinaceli
510,Fairlie,GB,55.31,few clouds,55.756,-4.8556,Brisbane House Hotel
511,Haicheng,CN,75.9,overcast clouds,40.8516,122.7475,Country Garden Phoenix Hotel
512,Palu,ID,74.07,broken clouds,-0.8917,119.8707,Swiss-Belhotel Silae Palu
513,Kirkenaer,NO,59.43,overcast clouds,60.4564,12.0582,Skaslien Gjestgiveri
516,Kibala,TD,69.75,clear sky,9.1104,18.3463,Prasant Hotels
517,Tavrichanka,RU,75.06,light rain,43.3378,131.8639,History hotel
518,Paamiut,GL,45.05,overcast clouds,61.994,-49.6678,Hotel Ivaana
519,Faya,SA,66.31,light rain,18.3851,42.4509,Abha Palace Hotel
520,Portland,US,78.64,broken clouds,45.5234,-122.6762,River's Edge Hotel
523,Turka,UA,57.79,clear sky,49.1541,23.0297,Hotel Arłamów
524,Gamba,GA,69.21,few clouds,-2.65,10.0,Laguna guest house
525,Vila Velha,BR,75.15,clear sky,-20.3297,-40.2925,Quality Suites Vila Velha
526,Birjand,IR,73.87,clear sky,32.8663,59.2211,مهمان پذیر نوید
528,Bacolod,PH,77.07,overcast clouds,10.6667,122.95,Park Inn by Radisson Bacolod
530,Limbang,MY,77.11,overcast clouds,4.75,115.0,OYO 90376 Centre Point Hotel
531,Kanker,IN,75.16,overcast clouds,20.2719,81.4931,Kanker Palace Heritage
532,Tauberbischofsheim,DE,78.51,clear sky,49.6247,9.6628,Gasthaus & Hotel Drei Lilien
533,Hasaki,JP,72.28,overcast clouds,35.7333,140.8333,Inubosaki Hotel
534,Nikolayevsk-Na-Amure,RU,63.36,overcast clouds,53.1406,140.73,"Hotel ""North"""
535,Sovetskiy,RU,61.47,scattered clouds,61.3614,63.5842,Hotel Alexandria
536,Hastings,GB,68.99,overcast clouds,50.8552,0.5729,Royal Victoria Hotel
537,Asau,RO,67.28,clear sky,46.4333,26.4,Cabana Duca
538,Hokitika,NZ,50.92,overcast clouds,-42.7167,170.9667,Beachfront Hotel Hokitika
539,Flin Flon,CA,64.24,overcast clouds,54.7682,-101.865,Victoria Inn Flin Flon
540,Orsk,RU,59.9,clear sky,51.2049,58.5668,Salyut
541,Micheweni,TZ,72.55,clear sky,-4.9667,39.8333,The Aiyana
544,Liverpool,GB,59.61,broken clouds,53.4106,-2.9779,Hotel Pullman Liverpool
545,Santa Maria,BR,58.3,overcast clouds,-29.6842,-53.8069,Itaimbé Palace Hotel
546,Asmara,ER,62.06,overcast clouds,15.3333,38.9333,Asmara Palace Hotel
547,Sol-Iletsk,RU,65.32,clear sky,51.1631,54.9918,Hotel Volga
548,Yumen,CN,78.4,broken clouds,40.2833,97.2,Haodu Hotel
549,Plettenberg Bay,ZA,55.96,overcast clouds,-34.0527,23.3716,The Plettenberg Hotel
550,Ayia Trias,GR,72.63,clear sky,38.35,22.9167,Hotel Athina
553,Pitsunda,GE,73.58,clear sky,43.1592,40.3378,AMSHIN-PItsunda
554,Borgarnes,IS,53.65,broken clouds,64.5383,-21.9206,B59 Hótel
555,Quang Ngai,VN,77.65,overcast clouds,15.1167,108.8,Central Hotel
559,Porirua,NZ,55.85,scattered clouds,-41.1333,174.85,Amethyst Court Motor lodge (Best Price on direct bookings)
560,Los Llanos De Aridane,ES,71.35,overcast clouds,28.6585,-17.9182,Hotel Hacienda de Abajo
561,Wasilla,US,66.06,clear sky,61.5814,-149.4394,Best Western Lake Lucille Inn
562,Apatity,RU,56.53,overcast clouds,67.5641,33.4031,"Hotel ""Amethyst"""
563,Chadiza,ZM,59.61,clear sky,-14.0678,32.4392,Chadiza Guest House
568,Benito Juarez,MX,77.0,broken clouds,19.385,-99.165,Hotel Galería Plaza Reforma
569,Chake Chake,TZ,70.9,clear sky,-5.2459,39.7666,Pemba Misali Sunset Beach
570,Vyazniki,RU,66.06,broken clouds,56.25,42.1667,Tranzit
571,Kyren,RU,58.24,overcast clouds,51.6828,102.1408,Tunka-350
573,Iskateley,RU,63.27,overcast clouds,67.6803,53.1512,Hotel North Palmyra
574,Husavik,IS,44.29,overcast clouds,66.0449,-17.3389,Fosshotel Húsavík
577,Inhambane,MZ,66.34,clear sky,-23.865,35.3833,Hotel Casa Do Capitão
579,Meulaboh,ID,75.87,overcast clouds,4.1363,96.1285,Bin Daod Hotel and Restaurant
580,Shingu,JP,79.9,clear sky,33.7333,135.9833,Hotel New Palace
581,Touros,BR,75.97,few clouds,-5.1989,-35.4608,Hotel Vila Gale Touros
582,Buin,CL,62.42,clear sky,-33.7333,-70.75,Hostal Condell
583,Pitimbu,BR,75.79,clear sky,-7.4706,-34.8086,Pousada O Nativo
584,Naze,JP,77.92,overcast clouds,28.3667,129.4833,山羊島ホテル
587,Ratnagiri,IN,79.07,moderate rain,16.9833,73.3,Hotel Sea Fans
588,Olafsvik,IS,49.78,clear sky,64.8945,-23.7142,Hotel Olafsvik
589,Burnie,AU,53.92,overcast clouds,-41.0667,145.9167,Ikon Hotel
591,Les Herbiers,FR,69.51,overcast clouds,46.8667,-1.0167,B&B HOTEL Les Herbiers
593,Chitral,PK,74.98,few clouds,35.8462,71.7858,Roomy Hindukush Sarai Chitral
594,Necochea,AR,44.92,clear sky,-38.5473,-58.7368,Ñikén Hotel & Spa
595,Milnathort,GB,53.67,scattered clouds,56.2269,-3.4193,The Green Hotel
596,Mumford,GH,73.58,overcast clouds,5.2618,-0.759,Blue Diamond Beach and Spa Resort
597,Peniche,PT,68.29,overcast clouds,39.3558,-9.3811,Hotel MH Atlântico
601,Tura,IN,73.99,broken clouds,25.5198,90.2201,Hotel Polo Orchid
602,Lisala,CD,70.03,broken clouds,2.15,21.5167,Guest house Eden
605,Sibolga,ID,73.76,overcast clouds,1.7427,98.7792,Hotel Wisata Indah
606,Cooma,AU,47.97,clear sky,-36.2333,149.1333,Cooma Motor Inn
607,Prince Rupert,CA,62.29,overcast clouds,54.3161,-130.3201,Crest Hotel
609,San Ramon De La Nueva Oran,AR,68.43,overcast clouds,-23.1322,-64.326,Victoria Apart
613,Quzhou,CN,79.45,few clouds,28.9594,118.8686,Royal Plaza Hotel
616,Kurilsk,RU,54.36,broken clouds,45.2333,147.8833,Hotel Ostrov
617,Paldiski,EE,71.6,clear sky,59.3567,24.0531,Paldiski Hotel
619,Santa Rosa,PH,78.78,moderate rain,14.3122,121.1114,El Cielito Hotel - Sta. Rosa
623,Panguipulli,CL,42.98,overcast clouds,-39.6333,-72.3333,Hotel 381 Panguipulli
624,Morogoro,TZ,63.72,few clouds,-6.8167,37.6667,Morogoro Hotel
625,Neiafu,TO,79.48,broken clouds,-18.65,-173.9833,Mystic Sands Beachfront Accommodation
627,Lebedyn,UA,64.45,broken clouds,50.5852,34.4849,Hanna
628,Katsina,NG,77.36,overcast clouds,12.9894,7.6006,Albustan Hotel
629,Kushiro,JP,57.97,overcast clouds,42.975,144.3747,ANAクラウンプラザホテル釧路
630,Komsomolskiy,UZ,75.81,clear sky,40.4272,71.7189,Hotel Di
632,Yanam,IN,77.0,broken clouds,16.7333,82.2167,The Regency Hotel
633,Mackenzie,CA,59.22,overcast clouds,55.2999,-123.1698,Royal Oak Inn & Suites & RV Park
635,Mosjoen,NO,52.32,light rain,65.836,13.1908,Fru Haugans Hotel
636,Vardo,NO,51.78,overcast clouds,70.3705,31.1107,Vardø Hotel AS
640,Kawalu,ID,67.6,overcast clouds,-7.3817,108.2082,Hotel Asri Tasikmalaya
643,San Isidro,PE,62.19,broken clouds,-12.1167,-77.05,BTH Hotel Boutique Concept
645,Puerto Madryn,AR,47.08,scattered clouds,-42.7692,-65.0385,Hotel Península Valdés
646,Brive-La-Gaillarde,FR,66.16,broken clouds,45.25,1.5,Logis Hôtel le Relais du Bas Limousin
648,Pringsewu,ID,72.01,overcast clouds,-5.3582,104.9744,Regency Hotel Pringsewu
649,Moyale,KE,68.43,overcast clouds,3.5167,39.0584,Holale Resort
651,Azangaro,PE,55.33,broken clouds,-14.9167,-70.2167,Hotel hotel
652,Shibetsu,JP,58.41,overcast clouds,43.659,145.132,Hotel Kawabata Shibetsu
656,Krasnogorsk,RU,75.06,clear sky,55.8225,37.3181,Hampton by Hilton Moscow Strogino
657,Matagami,CA,66.31,scattered clouds,49.7502,-77.6328,Motel Le Caribou
658,Blagoveshchensk,RU,72.21,moderate rain,50.2667,127.5333,Mercure Blagoveshchensk
659,Ornskoldsvik,SE,61.75,scattered clouds,63.2909,18.7153,Elite Plaza Hotel Örnsköldsvik
660,Skibotn,NO,54.86,scattered clouds,69.3913,20.2679,Skibotn Hotel
662,Buchanan,LR,75.09,overcast clouds,5.8808,-10.0467,Hotel Buchanan Liberia
665,Havre,FR,64.17,clear sky,49.5833,0.3333,Leclair Logis
668,Siavonga,ZM,68.58,clear sky,-16.5382,28.7088,Lake Safari Lodge
669,Birin,NP,63.61,scattered clouds,26.8865,88.0718,Kanyam Inn
670,Ourinhos,BR,78.67,broken clouds,-22.9789,-49.8706,ibis Ourinhos
671,Kroya,ID,72.03,overcast clouds,-7.6331,109.2461,Arrya Guna Hotel Kemranjen
672,Kashi,CN,76.21,clear sky,39.4547,75.9797,Radisson Blu Hotel Kashgar
674,Beberibe,BR,76.62,few clouds,-4.1797,-38.1306,Pousada Ocas do Índio
675,Ankang,CN,76.23,clear sky,32.68,109.0172,Xana Hotelle Huayuan Blvd Modern City Branch
677,Neryungri,RU,61.84,moderate rain,56.6709,124.6491,Hotel Timpton
678,Devin,BG,60.87,light rain,41.7433,24.4,Ismena SPA Hotel
679,Carballo,ES,71.02,overcast clouds,43.213,-8.691,Hotel Pensua Punta Del Este
681,Pau,FR,72.25,overcast clouds,43.4167,-0.5833,Le Reflet des Torches
682,Moerai,PF,72.01,broken clouds,-22.4333,-151.3333,VAITUMU VILLAGE
683,Constantine,DZ,74.61,few clouds,36.365,6.6147,ibis Constantine
685,Vanimo,PG,77.68,overcast clouds,-2.6741,141.3028,Vanimo Beach Hotel
687,La Ronge,CA,64.65,overcast clouds,55.1001,-105.2842,The Harbour Inn
688,Smithers,CA,61.12,broken clouds,54.7804,-127.1743,"Prestige Hudson Bay Lodge, Premier Collection"
689,Manchester,GB,59.32,few clouds,53.4809,-2.2374,"Hotel Football, Old Trafford, a Tribute Portfolio Hotel"
690,Daru,PG,78.67,overcast clouds,-9.0763,143.2092,Daru hotel
691,Lugovaya,RU,74.53,clear sky,56.05,37.4833,Hotel July
692,Vallenar,CL,68.7,clear sky,-28.5708,-70.7581,Hotel Puerto de Vega
694,Mingaora,PK,72.75,clear sky,34.7758,72.3625,Swat Serena Hotel
695,Rocha,UY,50.07,overcast clouds,-34.4833,-54.3333,Lo de Luna
697,Narasannapeta,IN,79.2,overcast clouds,18.4167,84.05,SPR Grand Hotel
699,Sundsvall,SE,63.97,overcast clouds,62.3913,17.3063,Scandic Sundsvall Nord
700,Kimbe,PG,79.47,broken clouds,-5.5502,150.1429,Liamo Reef Resort - Kimbe International Hotel
701,The Pas,CA,66.22,overcast clouds,53.8251,-101.2541,Andersen Inn and Suites
702,Samaipata,BO,51.1,broken clouds,-18.15,-63.8667,El Pueblito Hotel Boutique
